{
  "defaultAccounts": [
    { "email": "admin@foo.com", "password": "changeme", "role": "admin" },
    { "email": "john@foo.com", "password": "changeme" }
  ],

  "defaultData": [
    { "name": "Basket", "quantity": 3, "owner": "john@foo.com", "condition": "excellent" },
    { "name": "Bicycle", "quantity": 2, "owner": "john@foo.com", "condition": "poor" },
    { "name": "Banana", "quantity": 2, "owner": "admin@foo.com", "condition": "good" },
    { "name": "Boogie Board", "quantity": 2, "owner": "admin@foo.com", "condition": "excellent" }
  ],

  "defaultCCVendors": [{
    "name": "Campus Center Food Court", "image": "../images/FoodCourt.jpg", "location": "Campus Center", "hours": "Mon-Fri 7am-2pm"
  }, {
    "name": "Subway", "image": "../images/Subway.jpg", "location": "Campus Center", "hours": "Mon & Fri 8am-5pm\nTue-Thu 8am-6pm"
  }, {
    "name": "B'RITO BOWL", "image": "../images/BRITO.jpg", "location": "Campus Center", "hours": "Mon-Fri 10am-2pm"
  }, {
    "name": "Ding Tea", "image": "../images/DingTea.png", "location": "Campus Center 1st Floor", "hours": "Mon-Fri 10am-6pm"
  }, {
    "name": "Jamba Juice", "image": "../images/JambaJuice.jpg", "location": "Campus Center", "hours": "Mon-Fri 8am-4pm"
  }, {
    "name": "Starbucks", "image": "../images/Starbucks.jpg", "location": "Campus Center", "hours": "Mon-Thu 6am-10pm\nFri 6am-5pm"
  }, {
    "name": "The Bean Counter", "image": "../images/Bean-Counter.png", "location": "Shilder", "hours": "M-T 7:30am-6pm, F 7:30-4pm"
  }],

  "defaultPPVendors": [{
    "name": "Panda Express", "image": "../images/PandaExpress.jpg", "location": "Paradise Palms", "hours": "Mon-Fri 10am-4:30pm"
  }, {
    "name": "L&L Hawaiian Barbecue", "image": "../images/L&L.jpg", "location": "Paradise Palms", "hours": "Mon-Fri 10am-4:30pm"
  }, {
    "name": "Dunkin' Donuts", "image": "../images/DunkinDonuts.jpg", "location": "Paradise Palms", "hours": "Mon-Fri 7am-4:30pm"
  }, {
    "name": "Holoholo Grill", "image": "../images/Holoholo.jpg", "location": "Paradise Palms", "hours": "Mon-Fri 8am-3:00pm"
  }, {
    "name": "Lasoon", "image": "../images/Lasoon.jpg", "location": "Paradise Palms", "hours": "Mon-Fri 10am-4:30pm"
  }],

  "defaultFTVendors": [{
    "name": "Soul Fusion", "image": "../images/SoulFusion.jpg", "location": "Food Truck Row", "hours": "Mon, Wed, Thu, Fri 10am-2:00pm"
  }, {
    "name": "Evisuya", "image": "../images/Evisuya-menu.jpg", "location": "Food Truck Row", "hours": "Mon, Wed, Thu, Fri 10am-2:00pm"
  }, {
    "name": "HI Cravings", "image": "../images/Cravings.jpg", "location": "Food Truck Row", "hours": "Mon, Wed 10am-2:00pm"
  }, {
    "name": "Happy Belly Eatery", "image": "../images/Happy-Belly-Eatery.jpg", "location": "Food Truck Row", "hours": "Mon 10am-2:00pm"
  }, {
    "name": "HOLOHOLO Bistro", "image": "../images/Holoholo-bistro.png", "location": "Food Truck Row", "hours": "Wed 10am-2:00pm"
  },{
    "name": "SAMA SAMA", "image": "../images/Sama-sama.png", "location": "Food Truck Row", "hours": "Tue,Wed,Thu 10am-2:00pm"
  }, {
    "name": "VEGGIE DOGS", "image": "../images/Veggie-Dogs.png", "location": "Food Truck Row", "hours": "Mon, Tue 10am-2:00pm"
  }],

  "defaultHHVendors": [{
    "name": "BA-LE", "image": "../images/BA-LE.jpg", "location": "Hemenway Hall", "hours": "Mon-Thu 10am-8pm\nFri 10am-9pm"
  }],

  "defaultRDVendors": [{
    "name": "Hale Aloha Cafe", "image": "../images/HaleAlohaCafe.jpg", "location": "Hale Aloha Towers", "hours": "Brunch: Sat & Sun 10:30am-1:30pm\nDinner: Daily 5pm-8pm"
  }],
  
  "monti": {
    "appId": "Hxzjaj8Bmtrp6iz7m",
    "appSecret": "84fd7101-de91-4b49-8001-53d739dc0307"
  }
}
